{"0": {"id": 0, "name": "Aleja Bielany", "lat": 51.048332, "lng": 16.960160000000002}, "1": {"id": 1, "name": "Aleja Hallera - Mielecka", "lat": 51.089356, "lng": 17.001061}, "2": {"id": 2, "name": "Aleja Kromera", "lat": 51.132833000000005, "lng": 17.065654000000002}, "3": {"id": 3, "name": "Bacciarellego", "lat": 51.10351, "lng": 17.114487}, "4": {"id": 4, "name": "Bacciarellego - p\u0119tla autobusowa", "lat": 51.102301000000004, "lng": 17.116356}, "5": {"id": 5, "name": "Bardzka - Pi\u0119kna", "lat": 51.085218, "lng": 17.048482999999997}, "6": {"id": 6, "name": "Ba\u0142tycka - \u017bmigrodzka", "lat": 51.139829, "lng": 17.032705}, "7": {"id": 7, "name": "Berenta - Kasprowicza", "lat": 51.138552, "lng": 17.059292}, "8": {"id": 8, "name": "Bezpieczna - Obornicka", "lat": 51.141671, "lng": 17.026285}, "9": {"id": 9, "name": "Boguszowska - Kosmonaut\u00f3w", "lat": 51.143921, "lng": 16.889872}, "10": {"id": 10, "name": "Borowska (Uniw. Szpital Kliniczny)", "lat": 51.074422, "lng": 17.030970999999997}, "11": {"id": 11, "name": "Buforowa - Vivaldiego", "lat": 51.056171, "lng": 17.057259}, "12": {"id": 12, "name": "Bystrzycka - Idzikowskiego", "lat": 51.126526, "lng": 16.954624}, "13": {"id": 13, "name": "Centrum Handlowe Auchan Bielany", "lat": 51.053396, "lng": 16.971785}, "14": {"id": 14, "name": "Czekoladowa - Wa\u0142brzyska", "lat": 51.047067999999996, "lng": 16.95721}, "15": {"id": 15, "name": "Drobnera - Dubois", "lat": 51.116737, "lng": 17.033555}, "16": {"id": 16, "name": "Drobnera - Plac Bema", "lat": 51.117021, "lng": 17.042163000000002}, "17": {"id": 17, "name": "Drzewieckiego - Dedala", "lat": 51.126044, "lng": 16.9685}, "18": {"id": 18, "name": "Dworzec G\u0142\u00f3wny", "lat": 51.099499, "lng": 17.037162}, "19": {"id": 19, "name": "Dworzec G\u0142\u00f3wny - po\u0142udnie", "lat": 51.097239, "lng": 17.036282}, "20": {"id": 20, "name": "Dyrekcyjna - Borowska (Wroclavia)", "lat": 51.094988, "lng": 17.032866000000002}, "21": {"id": 21, "name": "Fabryczna - Wagonowa", "lat": 51.112338, "lng": 16.988766000000002}, "22": {"id": 22, "name": "Fabryczna\u00a0 (WSB)", "lat": 51.11296, "lng": 16.981661}, "23": {"id": 23, "name": "Fosa Miejska", "lat": 51.107198, "lng": 17.040939}, "24": {"id": 24, "name": "Gliniana - Gajowa", "lat": 51.091722, "lng": 17.04042}, "25": {"id": 25, "name": "Gorlicka - Litewska", "lat": 51.141631, "lng": 17.123732}, "26": {"id": 26, "name": "Grabiszy\u0144ska - Aleja Hallera", "lat": 51.094516, "lng": 16.980204}, "27": {"id": 27, "name": "Grabiszy\u0144ska - Magazynierska (Corte Verona)", "lat": 51.09599, "lng": 16.988189000000002}, "28": {"id": 28, "name": "Grabiszy\u0144ska - Stalowa", "lat": 51.099517999999996, "lng": 17.001193}, "29": {"id": 29, "name": "Graniczna - Strzegomska", "lat": 51.108796000000005, "lng": 16.915927}, "30": {"id": 30, "name": "Grochowa - Jemio\u0142owa -", "lat": 51.095379, "lng": 17.007788}, "31": {"id": 31, "name": "Grota-Roweckiego - Parafialna", "lat": 51.066334000000005, "lng": 17.033278}, "32": {"id": 32, "name": "Hallera - Odkrywc\u00f3w", "lat": 51.091669, "lng": 16.986062}, "33": {"id": 33, "name": "Hermanowska - Ko\u0142obrzeska", "lat": 51.123670000000004, "lng": 16.950611}, "34": {"id": 34, "name": "Hubska - Prudnicka", "lat": 51.089545, "lng": 17.044906}, "35": {"id": 35, "name": "Jagie\u0142\u0142y - Dmowskiego", "lat": 51.116806, "lng": 17.024476999999997}, "36": {"id": 36, "name": "Jagodzi\u0144ska - Buforowa", "lat": 51.058368, "lng": 17.057318}, "37": {"id": 37, "name": "Janiszewskiego (PWr)", "lat": 51.109153000000006, "lng": 17.060364}, "38": {"id": 38, "name": "Jedno\u015bci Narodowej - Wyszy\u0144skiego", "lat": 51.128383, "lng": 17.055035999999998}, "39": {"id": 39, "name": "Jerzmanowska", "lat": 51.124389, "lng": 16.888575}, "40": {"id": 40, "name": "Joliot-Curie (Uwr)", "lat": 51.110896000000004, "lng": 17.053273}, "41": {"id": 41, "name": "Kamienna - Borowska (Aquapark)", "lat": 51.091066, "lng": 17.032278}, "42": {"id": 42, "name": "Kamienna - Tomaszowska", "lat": 51.087889, "lng": 17.038932}, "43": {"id": 43, "name": "Kamie\u0144skiego - Jutrosi\u0144ska", "lat": 51.147, "lng": 17.042177}, "44": {"id": 44, "name": "Karwi\u0144ska - Opolska", "lat": 51.081881, "lng": 17.077476}, "45": {"id": 45, "name": "Kasprowicza - Syrokomli", "lat": 51.137259, "lng": 17.048281}, "46": {"id": 46, "name": "Kazimierza Wielkiego (Helios)", "lat": 51.109446000000005, "lng": 17.026367}, "47": {"id": 47, "name": "Kie\u0142czowska", "lat": 51.145917, "lng": 17.133}, "48": {"id": 48, "name": "Kleci\u0144ska - Du\u0144ska", "lat": 51.109666, "lng": 16.96882}, "49": {"id": 49, "name": "Komandorska - Kamienna", "lat": 51.089862, "lng": 17.023574}, "50": {"id": 50, "name": "Komandorska - Sanocka", "lat": 51.094594, "lng": 17.026839000000002}, "51": {"id": 51, "name": "Konduktorska", "lat": 51.064879, "lng": 17.065862}, "52": {"id": 52, "name": "Kosmonaut\u00f3w - Fieldorfa - szpital wojew\u00f3dzki", "lat": 51.144154, "lng": 16.907595999999998}, "53": {"id": 53, "name": "Kosmonaut\u00f3w - Glinianki - WUWA2", "lat": 51.139671, "lng": 16.933343}, "54": {"id": 54, "name": "Koszarowa - UWr", "lat": 51.140941999999995, "lng": 17.069172000000002}, "55": {"id": 55, "name": "Kozanowska - Pilczycka", "lat": 51.132354, "lng": 16.973354999999998}, "56": {"id": 56, "name": "Ko\u0142\u0142\u0105taja - Podwale", "lat": 51.103982, "lng": 17.037219}, "57": {"id": 57, "name": "Ko\u015bciuszki - Komuny Paryskiej - Zgodna", "lat": 51.098948, "lng": 17.05106}, "58": {"id": 58, "name": "Ko\u015bciuszki - Pu\u0142askiego", "lat": 51.099810999999995, "lng": 17.045436}, "59": {"id": 59, "name": "Krakowska - Leroy Merlin", "lat": 51.089776, "lng": 17.062561}, "60": {"id": 60, "name": "Kraszewskiego - Trzebnicka", "lat": 51.128375, "lng": 17.036675}, "61": {"id": 61, "name": "Krucza - Mielecka - Stalowa", "lat": 51.093412, "lng": 17.003764999999998}, "62": {"id": 62, "name": "Krzycka - Aleja Karkonoska (Park Po\u0142udniowy)", "lat": 51.075531, "lng": 17.010487}, "63": {"id": 63, "name": "Krzywoustego - Korona", "lat": 51.14225, "lng": 17.087622}, "64": {"id": 64, "name": "Krzywoustego - Rynek Psie Pole", "lat": 51.14589, "lng": 17.112374}, "65": {"id": 65, "name": "Ksi\u0119garska - Dekarska - Zdu\u0144ska", "lat": 51.177440000000004, "lng": 17.015876000000002}, "66": {"id": 66, "name": "Kurkowa - Dubois", "lat": 51.117883, "lng": 17.027992}, "67": {"id": 67, "name": "Legnicka (Park Magnolia)", "lat": 51.119167, "lng": 16.988611}, "68": {"id": 68, "name": "Legnicka - M\u0142odych Technik\u00f3w", "lat": 51.11298, "lng": 17.011774}, "69": {"id": 69, "name": "Legnicka - Wejherowska", "lat": 51.12522, "lng": 16.984048}, "70": {"id": 70, "name": "Legnicka - Zachodnia", "lat": 51.116938, "lng": 17.000218}, "71": {"id": 71, "name": "Le\u015bnica - p\u0119tla tramwajowa", "lat": 51.145517, "lng": 16.87183}, "72": {"id": 72, "name": "Lotnicza - Bajana", "lat": 51.130705999999996, "lng": 16.96637}, "73": {"id": 73, "name": "Lotnicza - Metalowc\u00f3w", "lat": 51.132785, "lng": 16.956791}, "74": {"id": 74, "name": "Lotnicza - Na Ostatnim Groszu", "lat": 51.126694, "lng": 16.979678}, "75": {"id": 75, "name": "Marca Polo (Olimpia Port)", "lat": 51.110477, "lng": 17.118013}, "76": {"id": 76, "name": "Ma\u015blicka - Stodolna", "lat": 51.157633000000004, "lng": 16.928037}, "77": {"id": 77, "name": "Mickiewicza - p\u0119tla tramwajowa", "lat": 51.113969, "lng": 17.103862}, "78": {"id": 78, "name": "Mi\u0142oszycka - Swojczycka", "lat": 51.119009999999996, "lng": 17.12267}, "79": {"id": 79, "name": "Mi\u0144ska - stanis\u0142awowska", "lat": 51.099153, "lng": 16.940916}, "80": {"id": 80, "name": "Mo\u015bcickiego (stacja kolejowa)", "lat": 51.064335, "lng": 17.08426}, "81": {"id": 81, "name": "Mo\u015bcickiego - Chi\u0144ska", "lat": 51.058911, "lng": 17.087216}, "82": {"id": 82, "name": "Mr\u0105gowska - Rolna", "lat": 51.149606, "lng": 16.938213}, "83": {"id": 83, "name": "M\u0142odych Technik\u00f3w", "lat": 51.116392, "lng": 17.012762}, "84": {"id": 84, "name": "M\u0142ynarska-W\u0105ska", "lat": 51.119671000000004, "lng": 17.031387}, "85": {"id": 85, "name": "Na Grobli (PWr - Geocentrum)", "lat": 51.104577, "lng": 17.054382999999998}, "86": {"id": 86, "name": "Na Ostatnim Groszu", "lat": 51.123011, "lng": 16.975548999999997}, "87": {"id": 87, "name": "Norwida - Wyspia\u0144skiego (PWr)", "lat": 51.107341999999996, "lng": 17.061795999999998}, "88": {"id": 88, "name": "Nowowiejska - G\u00f3rnickiego", "lat": 51.118728000000004, "lng": 17.058332}, "89": {"id": 89, "name": "Nowowiejska - Jedno\u015bci Narodowej", "lat": 51.124738, "lng": 17.045497}, "90": {"id": 90, "name": "Nowowiejska - Wyszy\u0144skiego", "lat": 51.12218, "lng": 17.052391}, "91": {"id": 91, "name": "Nyska - Jesionowa", "lat": 51.087218, "lng": 17.051367000000003}, "92": {"id": 92, "name": "Nyska - Pi\u0119kna", "lat": 51.085021999999995, "lng": 17.053178}, "93": {"id": 93, "name": "Obornicka - Ba\u0142tycka", "lat": 51.137485, "lng": 17.02981}, "94": {"id": 94, "name": "Okulickiego", "lat": 51.170415000000006, "lng": 17.131615}, "95": {"id": 95, "name": "Olszewskiego - Sp\u00f3\u0142dzielcza", "lat": 51.102104, "lng": 17.102104}, "96": {"id": 96, "name": "Olszewskiego - p\u0119tla tramwajowa", "lat": 51.101518, "lng": 17.108577}, "97": {"id": 97, "name": "Opolska - Siemianowicka", "lat": 51.071135, "lng": 17.090939000000002}, "98": {"id": 98, "name": "Opolska - p\u0119tla tramwajowa", "lat": 51.073301, "lng": 17.088672}, "99": {"id": 99, "name": "Opor\u00f3w (p\u0119tla tramwajowa)", "lat": 51.08413, "lng": 16.972012}, "100": {"id": 100, "name": "Osobowicka - Ostrowska", "lat": 51.14397, "lng": 16.987623000000003}, "101": {"id": 101, "name": "Osobowicka - p\u0119tla tramwajowa", "lat": 51.13756, "lng": 16.994193}, "102": {"id": 102, "name": "Paprotna - Obornicka - zajezdnia MPK", "lat": 51.148727, "lng": 17.022253}, "103": {"id": 103, "name": "Partyzant\u00f3w - Okrzei", "lat": 51.109407, "lng": 17.09786}, "104": {"id": 104, "name": "Pereca - Grabiszy\u0144ska", "lat": 51.101199, "lng": 17.008541}, "105": {"id": 105, "name": "Piaskowa - \u015bw. Ducha", "lat": 51.113134, "lng": 17.03947}, "106": {"id": 106, "name": "Pilczycka (Stadion Miejski)", "lat": 51.141217, "lng": 16.943794}, "107": {"id": 107, "name": "Pilczycka - Koszykarska", "lat": 51.140669, "lng": 16.958029}, "108": {"id": 108, "name": "Pilczycka - Kozanowska", "lat": 51.132354, "lng": 16.973354999999998}, "109": {"id": 109, "name": "Plac Dominika\u0144ski (Galeria Dominika\u0144ska)", "lat": 51.107928, "lng": 17.040375}, "110": {"id": 110, "name": "Plac Grunwaldzki (DS O\u0142\u00f3wek)", "lat": 51.114098999999996, "lng": 17.067557}, "111": {"id": 111, "name": "Plac Grunwaldzki - Polaka", "lat": 51.112337, "lng": 17.062745}, "112": {"id": 112, "name": "Plac Jana Paw\u0142a II (Akademia Muzyczna)", "lat": 51.111022999999996, "lng": 17.021313}, "113": {"id": 113, "name": "Plac Ko\u015bciuszki (Renoma)", "lat": 51.103544, "lng": 17.031901}, "114": {"id": 114, "name": "Plac Legion\u00f3w", "lat": 51.104405, "lng": 17.02338}, "115": {"id": 115, "name": "Plac Powsta\u0144c\u00f3w Warszawy (Muzeum Narodowe)", "lat": 51.110879, "lng": 17.047646}, "116": {"id": 116, "name": "Plac Powsta\u0144c\u00f3w \u015al\u0105skich", "lat": 51.089490000000005, "lng": 17.015583}, "117": {"id": 117, "name": "Plac Staszica", "lat": 51.123727, "lng": 17.029633}, "118": {"id": 118, "name": "Plac Strzegomski - Pozna\u0144ska", "lat": 51.113427, "lng": 17.006239}, "119": {"id": 119, "name": "Plac Uniwersytecki (UWr)", "lat": 51.114005, "lng": 17.034463}, "120": {"id": 120, "name": "Plac \u015awi\u0119tego Macieja - Trzebnicka", "lat": 51.12065, "lng": 17.036509}, "121": {"id": 121, "name": "Poleska - Litewska", "lat": 51.142008000000004, "lng": 17.127019}, "122": {"id": 122, "name": "Poniatowskiego - Ole\u015bnicka", "lat": 51.121321, "lng": 17.043397}, "123": {"id": 123, "name": "Popowice", "lat": 51.126858, "lng": 16.986331}, "124": {"id": 124, "name": "Popowicka", "lat": 51.128329, "lng": 16.989946}, "125": {"id": 125, "name": "Popowicka - Nied\u017awiedzia", "lat": 51.12538, "lng": 16.997370999999998}, "126": {"id": 126, "name": "Powsta\u0144cow \u015al\u0105skich - Aleja Hallera", "lat": 51.086203000000005, "lng": 17.012163}, "127": {"id": 127, "name": "Powsta\u0144c\u00f3w \u015al\u0105skich (Arkady Wroc\u0142awskie)", "lat": 51.099443, "lng": 17.028921}, "128": {"id": 128, "name": "Prochowicka - Dolnobrzeska", "lat": 51.151165, "lng": 16.865420999999998}, "129": {"id": 129, "name": "Promenady Wroc\u0142awskie", "lat": 51.130538, "lng": 17.044302}, "130": {"id": 130, "name": "Przyja\u017ani", "lat": 51.067046000000005, "lng": 16.99616}, "131": {"id": 131, "name": "Przyja\u017ani - Karkonoska", "lat": 51.068191, "lng": 17.004075}, "132": {"id": 132, "name": "Rac\u0142awicka - Rymarska", "lat": 51.07951, "lng": 16.987876}, "133": {"id": 133, "name": "Radeckiego - Marcinkowskiego (Uniw. Medyczny - CNIM)", "lat": 51.111781, "lng": 17.06875}, "134": {"id": 134, "name": "Reymonta - Kleczkowska", "lat": 51.127008000000004, "lng": 17.027783}, "135": {"id": 135, "name": "Robotnicza - Fabryczna", "lat": 51.111962, "lng": 16.999548}, "136": {"id": 136, "name": "Rogowska - Zemska", "lat": 51.11578, "lng": 16.947179000000002}, "137": {"id": 137, "name": "Rondo Reagana", "lat": 51.11185, "lng": 17.060064}, "138": {"id": 138, "name": "Rynek", "lat": 51.110699, "lng": 17.032366}, "139": {"id": 139, "name": "Semaforowa", "lat": 51.061315, "lng": 17.079764}, "140": {"id": 140, "name": "Sienkiewicza - Piastowska", "lat": 51.115809000000006, "lng": 17.060865}, "141": {"id": 141, "name": "Sienkiewicza - Wyszy\u0144skiego", "lat": 51.116799, "lng": 17.051385}, "142": {"id": 142, "name": "Skarbowc\u00f3w - Wietrzna", "lat": 51.073293, "lng": 16.994730999999998}, "143": {"id": 143, "name": "Solskiego - al. Piast\u00f3w", "lat": 51.077248, "lng": 16.963286}, "144": {"id": 144, "name": "So\u0142tysowicka - Redycka", "lat": 51.149044, "lng": 17.075579}, "145": {"id": 145, "name": "Stab\u0142owicka", "lat": 51.164281, "lng": 16.8971}, "146": {"id": 146, "name": "Stab\u0142owicka - G\u0142\u00f3wna", "lat": 51.163349, "lng": 16.896297}, "147": {"id": 147, "name": "Stacyjna (Dworzec Miko\u0142aj\u00f3w)", "lat": 51.115243, "lng": 16.998519}, "148": {"id": 148, "name": "Stadion Olimpijski", "lat": 51.119452, "lng": 17.096475}, "149": {"id": 149, "name": "Strachoci\u0144ska - Wie\u015bniacza", "lat": 51.106894, "lng": 17.142837}, "150": {"id": 150, "name": "Strachowskiego - Parafialna", "lat": 51.057008, "lng": 17.022492}, "151": {"id": 151, "name": "Strzegomska - Esto\u0144ska", "lat": 51.112125, "lng": 16.960254}, "152": {"id": 152, "name": "Strzegomska - Rogowska", "lat": 51.110092, "lng": 16.955434}, "153": {"id": 153, "name": "Szcz\u0119\u015bliwa (Sky Tower)", "lat": 51.094481, "lng": 17.019594}, "154": {"id": 154, "name": "Szewska - Kazimierza Wielkiego", "lat": 51.107273, "lng": 17.033485}, "155": {"id": 155, "name": "Tarnogajska - Klimasa", "lat": 51.080412, "lng": 17.06235}, "156": {"id": 156, "name": "Traktatowa (przystanek kolejowy)", "lat": 51.111669, "lng": 16.974196}, "157": {"id": 157, "name": "Traugutta - Ko\u015bciuszki", "lat": 51.097184000000006, "lng": 17.056022}, "158": {"id": 158, "name": "Traugutta - Pu\u0142askiego", "lat": 51.104557, "lng": 17.048582}, "159": {"id": 159, "name": "Trymanda - Mi\u0144ska", "lat": 51.103313, "lng": 16.945871}, "160": {"id": 160, "name": "Tyrmanda - Trawowa", "lat": 51.100095, "lng": 16.951719}, "161": {"id": 161, "name": "Waniliowa - Cynamonowa", "lat": 51.175968, "lng": 16.998719}, "162": {"id": 162, "name": "Wa\u0142brzyska - p\u0119tla tramwajowa", "lat": 51.064218, "lng": 16.978548}, "163": {"id": 163, "name": "Wilanowska", "lat": 51.15529, "lng": 17.133334}, "164": {"id": 164, "name": "Wita Stwosza - Szewska", "lat": 51.110252, "lng": 17.034712}, "165": {"id": 165, "name": "Wojanowska - Arbuzowa", "lat": 51.154378, "lng": 16.898641}, "166": {"id": 166, "name": "Wroc\u0142aw Le\u015bnica - stacja kolejowa", "lat": 51.142994, "lng": 16.866611}, "167": {"id": 167, "name": "Wroc\u0142aw Stadion - stacja kolejowa", "lat": 51.137161, "lng": 16.940623000000002}, "168": {"id": 168, "name": "Wr\u00f3blewskiego (Teki)", "lat": 51.103539000000005, "lng": 17.085639}, "169": {"id": 169, "name": "Wr\u00f3blewskiego (ZOO)", "lat": 51.104126, "lng": 17.074197}, "170": {"id": 170, "name": "Wyszy\u0144skiego - Szczytnicka", "lat": 51.113927000000004, "lng": 17.050524}, "171": {"id": 171, "name": "Zachodnia - Pozna\u0144ska", "lat": 51.117381, "lng": 17.007184}, "172": {"id": 172, "name": "Zaporoska - Gajowicka", "lat": 51.097288, "lng": 17.014321}, "173": {"id": 173, "name": "Zaporoska - Grabiszy\u0144ska", "lat": 51.102221, "lng": 17.013382999999997}, "174": {"id": 174, "name": "Zaporoska - Wielka - Krucza", "lat": 51.096596000000005, "lng": 17.014872}, "175": {"id": 175, "name": "Zatorska - Kr\u00f3lewska - p\u0119tla MPK", "lat": 51.16035, "lng": 17.133834}, "176": {"id": 176, "name": "Zwyci\u0119ska - Agrestowa", "lat": 51.058440000000004, "lng": 17.014397}, "177": {"id": 177, "name": "Zwyci\u0119ska - O\u0142taszy\u0144ska", "lat": 51.060148, "lng": 17.004175}, "178": {"id": 178, "name": "al. Armii Krajowej - Bardzka", "lat": 51.083118, "lng": 17.049067}, "179": {"id": 179, "name": "al. Armii Krajowej - Borowska", "lat": 51.083106, "lng": 17.035009}, "180": {"id": 180, "name": "al. Armii Krajowej - Tarnogajska", "lat": 51.083746999999995, "lng": 17.06116}, "181": {"id": 181, "name": "al. Br\u00fccknera - Kwidzy\u0144ska", "lat": 51.131659, "lng": 17.078879}, "182": {"id": 182, "name": "al. Jana III Sobieskiego - stacja kolejowa", "lat": 51.150172, "lng": 17.119070}, "183": {"id": 183, "name": "al. Karkonoska - Je\u017adziecka", "lat": 51.061445, "lng": 16.996538}, "184": {"id": 184, "name": "al. Kochanowskiego - Kopernika", "lat": 51.12018, "lng": 17.077047}, "185": {"id": 185, "name": "al. Kochanowskiego - \u015aniadeckich", "lat": 51.120166, "lng": 17.077492000000003}, "186": {"id": 186, "name": "al. Poprzeczna - stacja kolejowa", "lat": 51.1422, "lng": 17.083}, "187": {"id": 187, "name": "pl. Orl\u0105t Lwowskich", "lat": 51.108894, "lng": 17.01941}, "188": {"id": 188, "name": "pl. Powsta\u0144c\u00f3w Wielkopolskich", "lat": 51.124790000000004, "lng": 17.034810999999998}, "189": {"id": 189, "name": "\u0141ukasiewicza - Smoluchowskiego (PWr)", "lat": 51.107341999999996, "lng": 17.061795999999998}, "190": {"id": 190, "name": "\u015al\u0119\u017cna - Aleja Wi\u015bniowa", "lat": 51.083806, "lng": 17.025047}, "191": {"id": 191, "name": "\u015al\u0119\u017cna - Kamienna (Uniw. Ekonomiczny)", "lat": 51.090458, "lng": 17.024462}, "192": {"id": 192, "name": "\u015al\u0119\u017cna - Skierniewicka", "lat": 51.076778000000004, "lng": 17.018105}, "193": {"id": 193, "name": "\u015al\u0119\u017cna - p\u0119tla tramwajowa", "lat": 51.089265999999995, "lng": 17.02968}, "194": {"id": 194, "name": "\u015aredzka - Dolnobrzeska", "lat": 51.145829, "lng": 16.867231}, "195": {"id": 195, "name": "\u015arubowa - Strzegomska", "lat": 51.113085999999996, "lng": 17.001197}, "196": {"id": 196, "name": "\u015awidnicka - Pi\u0142sudskiego (Hotel Scandic)", "lat": 51.101353, "lng": 17.027948000000002}, "197": {"id": 197, "name": "\u015awieradowska (Ferio Gaj\u00a0)", "lat": 51.076315, "lng": 17.042002}, "198": {"id": 198, "name": "\u015awieradowska - Krynicka", "lat": 51.076985, "lng": 17.047129}, "199": {"id": 199, "name": "\u017belazna - Pereca", "lat": 51.098058, "lng": 17.007049}, "200": {"id": 200, "name": "\u017bernicka", "lat": 51.122551, "lng": 16.930101999999998}, "201": {"id": 201, "name": "\u017beromskiego - Daszy\u0144skiego", "lat": 51.125443, "lng": 17.050309}, "202": {"id": 202, "name": "\u017beromskiego - Kluczborska", "lat": 51.12246, "lng": 17.047759}, "203": {"id": 203, "name": "\u017bmigrodzka - Broniewskiego", "lat": 51.135851, "lng": 17.036645999999998}, "204": {"id": 204, "name": "\u017bmigrodzka - Marino", "lat": 51.151616, "lng": 17.027542999999998}}